 [
      {
        "identifiant": "123-45-6789",
        "nom_prenom": "Dupont Jean",
        "etat": "actif",
        "service": "commercial",
        "frequence_cardiaque": 75,
        "taux_sudation": 0.5,
        "position": {
          "latitude": 48.8566,
          "longitude": 2.3522
        }
      },
      {
        "identifiant": "234-56-7890",
        "nom_prenom": "Martin Marie",
        "etat": "repos",
        "service": "finance et gestion",
        "frequence_cardiaque": 68,
        "taux_sudation": 0.3,
        "position": {
          "latitude": 40.7128,
          "longitude": -74.0060
        }
      },
      {
        "identifiant": "345-67-8901",
        "nom_prenom": "Lefevre Anne",
        "etat": "arrêt maladie",
        "service": "ressources humaines",
        "frequence_cardiaque": 80,
        "taux_sudation": 0.8,
        "position": {
          "latitude": 51.5074,
          "longitude": -0.1278
        }
      },
      {
        "identifiant": "456-78-9012",
        "nom_prenom": "Dubois Pierre",
        "etat": "congé",
        "service": "juridique",
        "frequence_cardiaque": 72,
        "taux_sudation": 0.4,
        "position": {
          "latitude": 34.0522,
          "longitude": -118.2437
        }
      },
      {
        "identifiant": "567-89-0123",
        "nom_prenom": "Moreau Sophie",
        "etat": "actif",
        "service": "logistique",
        "frequence_cardiaque": 78,
        "taux_sudation": 0.6,
        "position": {
          "latitude": 45.4215,
          "longitude": -75.6993
        }
      },
      {
        "identifiant": "678-90-1234",
        "nom_prenom": "Girard Paul",
        "etat": "repos",
        "service": "assistance commerciale",
        "frequence_cardiaque": 70,
        "taux_sudation": 0.2,
        "position": {
          "latitude": 35.6895,
          "longitude": 139.6917
        }
      },
      {
        "identifiant": "789-01-2345",
        "nom_prenom": "Roux Isabelle",
        "etat": "arrêt maladie",
        "service": "direction générale",
        "frequence_cardiaque": 85,
        "taux_sudation": 0.9,
        "position": {
          "latitude": 55.7558,
          "longitude": 37.6176
        }
      },
      {
        "identifiant": "890-12-3456",
        "nom_prenom": "Leroy Michel",
        "etat": "congé",
        "service": "maintenance",
        "frequence_cardiaque": 75,
        "taux_sudation": 0.5,
        "position": {
          "latitude": 52.5200,
          "longitude": 13.4050
        }
      },
      {
        "identifiant": "901-23-4567",
        "nom_prenom": "Fournier Laura",
        "etat": "actif",
        "service": "achats",
        "frequence_cardiaque": 82,
        "taux_sudation": 0.7,
        "position": {
          "latitude": 41.8781,
          "longitude": -87.6298
        }
      },
      {
        "identifiant": "012-34-5678",
        "nom_prenom": "Caron Nicolas",
        "etat": "repos",
        "service": "cyber sécurité",
        "frequence_cardiaque": 68,
        "taux_sudation": 0.3,
        "position": {
          "latitude": 37.7749,
          "longitude": -122.4194
        }
      }
    ]
  